{
    "0001" : {"shopname": "Hello store",
              "lastupdate": " - ",
              "opentime": "09:00 ~ 22:00",
              "address": "xxx xxx xxxx 0-00-0",
              "latlng": {"lat":20.4257771, "lng": 136.0811762},
              "tel": "0000-00-0000"
              },
    
    "0002" : {"shopname": "Shop World",
              "lastupdate": " - ",
              "opentime": "09:00 ~ 21:00",
              "address": "xxx xxx xxxx 0-00-0",
              "latlng": {"lat":20.425397, "lng": 136.0811695},
              "tel": "0000-00-0000"
              },
    
    "0003" : {"shopname": "Drug store xxxx",
              "lastupdate": " - ",
              "opentime": "09:00 ~ 22:00",
              "address": "xxx xxx xxxx 0-00-0",
              "latlng": {"lat":20.425593, "lng": 136.0809576},
              "tel": "0000-00-0000"
              },
    
    "0004" : {"shopname": "XXXX xxxx STORE",
              "lastupdate": "2020年04月11日 17:25",
              "opentime": "09:00 ~ 21:45",
              "address": "xxx xxx xxxx 0-00-0",
              "latlng": {"lat":20.4256031, "lng": 136.0814075},
              "tel": "0000-00-0000"
              },
    
    "0005" : {"shopname": "Okinotorishima store",
              "lastupdate": "2020年04月11日 18:02",
              "opentime": "09:00 ~ 22:00",
              "address": "xxx xxx xxxx 0-00-0",
              "latlng": {"lat":20.4255974, "lng": 136.081195},
              "tel": "0000-00-0000"
              }}