{
    "0001" : {"shopname": "スギドラッグ 味美店",
              "lastupdate": " - ",
              "opentime": "09:00 ~ 22:00",
              "address": "愛知県春日井市二子町２丁目３−１５",
              "latlng": {"lat":35.2292387, "lng": 136.9336472},
              "tel": "0568-36-8550"
              },
    
    "0002" : {"shopname": "マツモトキヨシ 味美店",
              "lastupdate": " - ",
              "opentime": "09:00 ~ 21:00",
              "address": "愛知県春日井市花長町２丁目１３−１１",
              "latlng": {"lat":35.2329674, "lng": 136.9393061},
              "tel": "0568-32-6316"
              },
    
    "0004" : {"shopname": "クリエイトS・D 春日井美濃店",
              "lastupdate": " - ",
              "opentime": "09:00 ~ 21:45",
              "address": "愛知県春日井市美濃町３丁目７",
              "latlng": {"lat":35.2385276, "lng": 136.9464837},
              "tel": "0568-36-9301"
              },
    
    "0005" : {"shopname": "ウエルシア フレスポ春日井店",
              "lastupdate": " - ",
              "opentime": "09:30 ~ 23:00",
              "address": "愛知県春日井市追進町２丁目１−５",
              "latlng": {"lat":35.2261044, "lng": 136.9405156},
              "tel": "0568-35-6002"
              },
    
    "0006" : {"shopname": "Ｖ・ｄｒｕｇ 春日井宮町店",
              "lastupdate": " - ",
              "opentime": "10:00 ~ 21:00",
              "address": "〒愛知県春日井市宮町中島１−１",
              "latlng": {"lat":35.2519461, "lng": 136.9441194},
              "tel": "0568-35-4690"
              },
    
    "0007" : {"shopname": "Ｖ・ｄｒｕｇ 勝川店",
              "lastupdate": " - ",
              "opentime": "09:00 ~ 22:00",
              "address": "愛知県春日井市知多町４丁目１０",
              "latlng": {"lat":35.2355811, "lng": 136.9468297},
              "tel": "0568-35-2897"
              },
    
    "0008" : {"shopname": "Ｖ・ｄｒｕｇ 春日井朝宮店",
              "lastupdate": " - ",
              "opentime": "09:00 ~ 21:00",
              "address": "愛知県春日井市朝宮町２丁目１８−２",
              "latlng": {"lat":35.2496235, "lng": 136.958586},
              "tel": "0568-34-6580"
              },
    
    "0009" : {"shopname": "V・ｄｒｕｇ 春日井西店",
              "lastupdate": " - ",
              "opentime": "09:30 ~ 21:00",
              "address": "愛知県春日井市西高山町２丁目２−９",
              "latlng": {"lat":35.2567281, "lng": 136.9468348},
              "tel": "0568-34-8102"
              },
    
    "0010" : {"shopname": "B&amp;D 味美店",
              "lastupdate": " - ",
              "opentime": "10:00 ~ 21:00",
              "address": "愛知県春日井市 味美白山町2丁目9番地ベルニシキ １Ｆ",
              "latlng": {"lat":35.2334958, "lng": 136.9316626},
              "tel": "0568-34-4193"
              },
    
    "0012" : {"shopname": "B&amp;D フィールネットワーク店",
              "lastupdate": " - ",
              "opentime": "10:00 ~ 21:00",
              "address": "愛知県春日井市如意申町５丁目７−１",
              "latlng": {"lat":35.2498083, "lng": 136.9503744},
              "tel": "0568-27-7700"
              },
    
    "0013" : {"shopname": "B&amp;D 勝川駅店",
              "lastupdate": " - ",
              "opentime": "10:00 ~ 21:00",
              "address": "愛知県春日井市松新町１丁目3−番地ルネッサンスシティ勝川１番",
              "latlng": {"lat":35.230336, "lng": 136.9554662},
              "tel": "0568-35-5093"
              },
    
    "0014" : {"shopname": "ナフコ不二屋 サンライフ店",
              "lastupdate": " - ",
              "opentime": "10:00 ~ 20:30",
              "address": "愛知県春日井市美濃町２丁目１５",
              "latlng": {"lat":35.2394873, "lng": 136.9415974},
              "tel": "0568-31-6009"
              },
    
    "0016" : {"shopname": "ヤマナカ味美店",
              "lastupdate": " - ",
              "opentime": "09:30 ~ 21:00",
              "address": "愛知県春日井市味美白山町１丁目３−２",
              "latlng": {"lat":35.232492, "lng": 136.9345582},
              "tel": "0568-32-0582"
              },
    
    "0017" : {"shopname": "ヤマナカ 勝川フランテ館",
              "lastupdate": " - ",
              "opentime": "10:00 ~ 21:30",
              "address": "愛知県春日井市八光町１丁目５",
              "latlng": {"lat":35.2331799, "lng": 136.9564289},
              "tel": "0568-31-6271"
              },
    
    "0018" : {"shopname": "ヤマナカ追進店",
              "lastupdate": " - ",
              "opentime": "09:30 ~ 23:00",
              "address": "愛知県春日井市追進町２丁目１番５",
              "latlng": {"lat":35.2256602, "lng": 136.9418828},
              "tel": "0568-35-5335"
              },
    
    "0019" : {"shopname": "西友 勝川店",
              "lastupdate": " - ",
              "opentime": "24h",
              "address": "愛知県春日井市勝川新町１丁目２７",
              "latlng": {"lat":35.2323387, "lng": 136.9477225},
              "tel": "0568-34-8901"
              },
    
    "0020" : {"shopname": "マックスバリュー エクスプレス勝川駅店",
              "lastupdate": " - ",
              "opentime": "07:00 ~ 01:00",
              "address": "愛知県春日井市松新町６丁目３３２４−１",
              "latlng": {"lat":35.2297311, "lng": 136.9561082},
              "tel": "0568-31-0550"
              },
    
    "0021" : {"shopname": "平和堂 春日井宮町店",
              "lastupdate": " - ",
              "opentime": "09:00 ~ 21:00",
              "address": "愛知県春日井市宮町１丁目１番地２",
              "latlng": {"lat":35.2513749, "lng": 136.9468814},
              "tel": "0568-36-8511"
              },
    
    "0022" : {"shopname": "バロー 春日井西店",
              "lastupdate": " - ",
              "opentime": "10:00 ~ 21:00",
              "address": "愛知県春日井市西高山町２丁目３−６",
              "latlng": {"lat":35.2570933, "lng": 136.9460568},
              "tel": "0568-34-8100"
              },
    
    "0023" : {"shopname": "アオキスーパー 朝宮店",
              "lastupdate": " - ",
              "opentime": "10:00 ~ 20:00",
              "address": "愛知県春日井市朝宮町２丁目１３−１３",
              "latlng": {"lat":35.2491048, "lng": 136.957818},
              "tel": "0568-34-6631"
              },
    
    "0024" : {"shopname": "フィールネットワーク店",
              "lastupdate": " - ",
              "opentime": "10:00 ~ 21:00",
              "address": "愛知県春日井市如意申町５丁目７−１",
              "latlng": {"lat":35.2500526, "lng": 136.9511193},
              "tel": "0568-36-1211"
              },
    
    "0025" : {"shopname": "DCMカーマ 春日井西店",
              "lastupdate": " - ",
              "opentime": "10:00 ~ 20:00",
              "address": "愛知県春日井市如意申町５丁目７−１４",
              "latlng": {"lat":35.2500763, "lng": 136.9527127},
              "tel": "0568-35-7181"
              },
    
    "0027" : {"shopname": "B&amp;D 宮町店",
              "lastupdate": " - ",
              "opentime": "10:00 ~ 21:00",
              "address": "愛知県春日井市如意申町４丁目5番地3",
              "latlng": {"lat":35.2501389, "lng": 136.9460552},
              "tel": "0568-44-2277"
              },
    
    "0015" : {"shopname": "ナフコ不二屋 サンライフ店",
              "lastupdate": "2020年04月03日 18:42",
              "opentime": "09:30 ~ 20:30",
              "address": "愛知県春日井市旭町４丁目１１",
              "latlng": {"lat":35.2392638, "lng": 136.9536674},
              "tel": "0568-31-2251"
              },
    
    "0011" : {"shopname": "B&amp;D 如意申店",
              "lastupdate": "2020年04月03日 19:30",
              "opentime": "10:00 ~ 22:00",
              "address": "愛知県春日井市如意申町３丁目１３−１１",
              "latlng": {"lat":35.2455158, "lng": 136.9492105},
              "tel": "0568-36-8593"
              },
    
    "0003" : {"shopname": "ツルハドラッグ 春日井柏原店",
              "lastupdate": "2020年04月03日 20:52",
              "opentime": "09:00 ~ 22:00",
              "address": "愛知県春日井市柏原町２丁目84",
              "latlng": {"lat":35.242806, "lng": 136.9589962},
              "tel": "0568-35-5488"
              }}